[
    {
        "id": 274772,
        "RegionName": "Northeast Dallas",
        "State": "TX",
        "Metro": "Dallas-Fort Worth-Arlington",
        "County": "Dallas County",
        "Home Value": 335800,
        "Peak Home Value": 340800,
        "latitude": 32.854765,
        "longitude": -96.713563,
        "name": "Northeast Dallas",
        "url": "http:\/\/www.zillow.com\/local-info\/TX-Dallas\/Northeast-Dallas\/r_274772\/"
    },
    {
        "id": 273698,
        "RegionName": "Far North",
        "State": "TX",
        "Metro": "Dallas-Fort Worth-Arlington",
        "County": "Dallas County",
        "Home Value": 394600,
        "Peak Home Value": 397100,
        "latitude": 32.970441,
        "longitude": -96.811547,
        "name": "Far North",
        "url": "http:\/\/www.zillow.com\/local-info\/TX-Dallas\/Far-North\/r_273698\/"
    },
    {
        "id": 275473,
        "RegionName": "Southeast Dallas",
        "State": "TX",
        "Metro": "Dallas-Fort Worth-Arlington",
        "County": "Dallas County",
        "Home Value": 135300,
        "Peak Home Value": 136400,
        "latitude": 32.710997,
        "longitude": -96.663243,
        "name": "Southeast Dallas",
        "url": "http:\/\/www.zillow.com\/local-info\/TX-Dallas\/Southeast-Dallas\/r_275473\/"
    },
    {
        "id": 275501,
        "RegionName": "Southwest Dallas",
        "State": "TX",
        "Metro": "Dallas-Fort Worth-Arlington",
        "County": "Dallas County",
        "Home Value": 195000,
        "Peak Home Value": 195800,
        "latitude": 32.68438,
        "longitude": -96.911452,
        "name": "Southwest Dallas",
        "url": "http:\/\/www.zillow.com\/local-info\/TX-Dallas\/Southwest-Dallas\/r_275501\/"
    },
    {
        "id": 275090,
        "RegionName": "Preston Hollow",
        "State": "TX",
        "Metro": "Dallas-Fort Worth-Arlington",
        "County": "Dallas County",
        "Home Value": 413500,
        "Peak Home Value": 420200,
        "latitude": 32.891162,
        "longitude": -96.870182,
        "name": "Preston Hollow",
        "url": "http:\/\/www.zillow.com\/local-info\/TX-Dallas\/Preston-Hollow\/r_275090\/"
    },
    {
        "id": 276107,
        "RegionName": "Oak Cliff",
        "State": "TX",
        "Metro": "Dallas-Fort Worth-Arlington",
        "County": "Dallas County",
        "Home Value": 165000,
        "Peak Home Value": 168000,
        "latitude": 32.729599,
        "longitude": -96.892456,
        "name": "Oak Cliff",
        "url": "http:\/\/www.zillow.com\/local-info\/TX-Dallas\/Oak-Cliff\/r_276107\/"
    },
    {
        "id": 274835,
        "RegionName": "Oak Lawn",
        "State": "TX",
        "Metro": "Dallas-Fort Worth-Arlington",
        "County": "Dallas County",
        "Home Value": 320800,
        "Peak Home Value": 322100,
        "latitude": 32.810175,
        "longitude": -96.811567,
        "name": "Oak Lawn",
        "url": "http:\/\/www.zillow.com\/local-info\/TX-Dallas\/Oak-Lawn\/r_274835\/"
    },
    {
        "id": 271495,
        "RegionName": "North Dallas",
        "State": "TX",
        "Metro": "Dallas-Fort Worth-Arlington",
        "County": "Dallas County",
        "Home Value": 696200,
        "Peak Home Value": 696200,
        "latitude": 32.888148,
        "longitude": -96.791051,
        "name": "North Dallas",
        "url": "http:\/\/www.zillow.com\/local-info\/TX-Dallas\/North-Dallas\/r_271495\/"
    },
    {
        "id": 276113,
        "RegionName": "Wolf Creek",
        "State": "TX",
        "Metro": "Dallas-Fort Worth-Arlington",
        "County": "Dallas County",
        "Home Value": 176400,
        "Peak Home Value": 177000,
        "latitude": 32.661798,
        "longitude": -96.853882,
        "name": "Wolf Creek",
        "url": "http:\/\/www.zillow.com\/local-info\/TX-Dallas\/Wolf-Creek\/r_276113\/"
    },
    {
        "id": 272701,
        "RegionName": "M Streets",
        "State": "TX",
        "Metro": "Dallas-Fort Worth-Arlington",
        "County": "Dallas County",
        "Home Value": 459800,
        "Peak Home Value": 460900,
        "latitude": 32.822061,
        "longitude": -96.776961,
        "name": "M Streets",
        "url": "http:\/\/www.zillow.com\/local-info\/TX-Dallas\/M-Streets\/r_272701\/"
    },
    {
        "id": 236102,
        "RegionName": "Winnetka Heights",
        "State": "TX",
        "Metro": "Dallas-Fort Worth-Arlington",
        "County": "Dallas County",
        "Home Value": 341900,
        "Peak Home Value": 349000,
        "latitude": 32.75213,
        "longitude": -96.83217,
        "name": "Winnetka Heights",
        "url": "http:\/\/www.zillow.com\/local-info\/TX-Dallas\/Winnetka-Heights\/r_236102\/"
    },
    {
        "id": 271568,
        "RegionName": "South Dallas",
        "State": "TX",
        "Metro": "Dallas-Fort Worth-Arlington",
        "County": "Dallas County",
        "Home Value": 140600,
        "Peak Home Value": 141800,
        "latitude": 32.663019,
        "longitude": -96.763573,
        "name": "South Dallas",
        "url": "http:\/\/www.zillow.com\/local-info\/TX-Dallas\/South-Dallas\/r_271568\/"
    },
    {
        "id": 275414,
        "RegionName": "South Boulevard-Park Row Historic",
        "State": "TX",
        "Metro": "Dallas-Fort Worth-Arlington",
        "County": "Dallas County",
        "Home Value": 96000,
        "Peak Home Value": 99500,
        "latitude": 32.744677,
        "longitude": -96.744947,
        "name": "South Boulevard-Park Row Historic",
        "url": "http:\/\/www.zillow.com\/local-info\/TX-Dallas\/South-Boulevard--Park-Row-Historic\/r_275414\/"
    },
    {
        "id": 272991,
        "RegionName": "Bluffview",
        "State": "TX",
        "Metro": "Dallas-Fort Worth-Arlington",
        "County": "Dallas County",
        "Home Value": 562700,
        "Peak Home Value": 562700,
        "latitude": 32.8451,
        "longitude": -96.834386,
        "name": "Bluffview",
        "url": "http:\/\/www.zillow.com\/local-info\/TX-Dallas\/Bluffview\/r_272991\/"
    },
    {
        "id": 764360,
        "RegionName": "Buckner Terrace",
        "State": "TX",
        "Metro": "Dallas-Fort Worth-Arlington",
        "County": "Dallas County",
        "Home Value": 252100,
        "Peak Home Value": 256200,
        "latitude": 32.785816,
        "longitude": -96.704502,
        "name": "Buckner Terrace",
        "url": "http:\/\/www.zillow.com\/local-info\/TX-Dallas\/Buckner-Terrace\/r_764360\/"
    },
    {
        "id": 234277,
        "RegionName": "Indian Creek",
        "State": "TX",
        "Metro": "Dallas-Fort Worth-Arlington",
        "County": "Denton County",
        "Home Value": 367200,
        "Peak Home Value": 369200,
        "latitude": 33.023019,
        "longitude": -96.9338,
        "name": "Indian Creek",
        "url": "http:\/\/www.zillow.com\/local-info\/TX-Carrollton\/Indian-Creek\/r_234277\/"
    },
    {
        "id": 416938,
        "RegionName": "Canyon Creek",
        "State": "TX",
        "Metro": "Dallas-Fort Worth-Arlington",
        "County": "Dallas County",
        "Home Value": 411100,
        "Peak Home Value": 417000,
        "latitude": 32.986434,
        "longitude": -96.727276,
        "name": "Canyon Creek",
        "url": "http:\/\/www.zillow.com\/local-info\/TX-Richardson\/Canyon-Creek\/r_416938\/"
    },
    {
        "id": 273343,
        "RegionName": "Coomer Creek",
        "State": "TX",
        "Metro": "Dallas-Fort Worth-Arlington",
        "County": "Dallas County",
        "Home Value": 240400,
        "Peak Home Value": 243400,
        "latitude": 32.943422,
        "longitude": -96.634193,
        "name": "Coomer Creek",
        "url": "http:\/\/www.zillow.com\/local-info\/TX-Garland\/Coomer-Creek\/r_273343\/"
    },
    {
        "id": 416926,
        "RegionName": "Highland Terrace",
        "State": "TX",
        "Metro": "Dallas-Fort Worth-Arlington",
        "County": "Dallas County",
        "Home Value": 259100,
        "Peak Home Value": 260300,
        "latitude": 32.947123,
        "longitude": -96.723569,
        "name": "Highland Terrace",
        "url": "http:\/\/www.zillow.com\/local-info\/TX-Richardson\/Highland-Terrace\/r_416926\/"
    },
    {
        "id": 416936,
        "RegionName": "Yale Park",
        "State": "TX",
        "Metro": "Dallas-Fort Worth-Arlington",
        "County": "Dallas County",
        "Home Value": 287100,
        "Peak Home Value": 288600,
        "latitude": 32.967675,
        "longitude": -96.691244,
        "name": "Yale Park",
        "url": "http:\/\/www.zillow.com\/local-info\/TX-Richardson\/Yale-Park\/r_416936\/"
    },
    {
        "id": 762197,
        "RegionName": "Rohton Park",
        "State": "TX",
        "Metro": "Dallas-Fort Worth-Arlington",
        "County": "Denton County",
        "Home Value": 223900,
        "Peak Home Value": 226400,
        "latitude": 32.950002,
        "longitude": -96.88057,
        "name": "Rohton Park",
        "url": "http:\/\/www.zillow.com\/local-info\/TX-Carrollton\/Rohton-Park\/r_762197\/"
    },
    {
        "id": 416934,
        "RegionName": "Duck Creek",
        "State": "TX",
        "Metro": "Dallas-Fort Worth-Arlington",
        "County": "Dallas County",
        "Home Value": 305100,
        "Peak Home Value": 306500,
        "latitude": 32.952894,
        "longitude": -96.69138,
        "name": "Duck Creek",
        "url": "http:\/\/www.zillow.com\/local-info\/TX-Richardson\/Duck-Creek\/r_416934\/"
    },
    {
        "id": 274859,
        "RegionName": "Oakridge",
        "State": "TX",
        "Metro": "Dallas-Fort Worth-Arlington",
        "County": "Dallas County",
        "Home Value": 273300,
        "Peak Home Value": 276700,
        "latitude": 32.938024,
        "longitude": -96.673744,
        "name": "Oakridge",
        "url": "http:\/\/www.zillow.com\/local-info\/TX-Garland\/Oakridge\/r_274859\/"
    },
    {
        "id": 416919,
        "RegionName": "Greenwood Hills",
        "State": "TX",
        "Metro": "Dallas-Fort Worth-Arlington",
        "County": "Dallas County",
        "Home Value": 284800,
        "Peak Home Value": 287300,
        "latitude": 32.970286,
        "longitude": -96.750015,
        "name": "Greenwood Hills",
        "url": "http:\/\/www.zillow.com\/local-info\/TX-Richardson\/Greenwood-Hills\/r_416919\/"
    },
    {
        "id": 760983,
        "RegionName": "Candel Meadow",
        "State": "TX",
        "Metro": "Dallas-Fort Worth-Arlington",
        "County": "Dallas County",
        "Home Value": 297400,
        "Peak Home Value": 301800,
        "latitude": 32.578952,
        "longitude": -96.886981,
        "name": "Candel Meadow",
        "url": "http:\/\/www.zillow.com\/local-info\/TX-Desoto\/Candel-Meadow\/r_760983\/"
    },
    {
        "id": 276233,
        "RegionName": "Camelot",
        "State": "TX",
        "Metro": "Dallas-Fort Worth-Arlington",
        "County": "Dallas County",
        "Home Value": 230200,
        "Peak Home Value": 234200,
        "latitude": 32.966899,
        "longitude": -96.673685,
        "name": "Camelot",
        "url": "http:\/\/www.zillow.com\/local-info\/TX-Garland\/Camelot\/r_276233\/"
    },
    {
        "id": 343419,
        "RegionName": "Apollo Arapaho & Camelot",
        "State": "TX",
        "Metro": "Dallas-Fort Worth-Arlington",
        "County": "Dallas County",
        "Home Value": 228700,
        "Peak Home Value": 229200,
        "latitude": 32.956407,
        "longitude": -96.673964,
        "name": "Apollo Arapaho & Camelot",
        "url": "http:\/\/www.zillow.com\/local-info\/TX-Garland\/Apollo-Arapaho-&-Camelot\/r_343419\/"
    },
    {
        "id": 416920,
        "RegionName": "Northrich",
        "State": "TX",
        "Metro": "Dallas-Fort Worth-Arlington",
        "County": "Dallas County",
        "Home Value": 262400,
        "Peak Home Value": 265800,
        "latitude": 32.969474,
        "longitude": -96.735934,
        "name": "Northrich",
        "url": "http:\/\/www.zillow.com\/local-info\/TX-Richardson\/Northrich\/r_416920\/"
    },
    {
        "id": 416915,
        "RegionName": "Arapaho",
        "State": "TX",
        "Metro": "Dallas-Fort Worth-Arlington",
        "County": "Dallas County",
        "Home Value": 314900,
        "Peak Home Value": 322600,
        "latitude": 32.957085,
        "longitude": -96.757482,
        "name": "Arapaho",
        "url": "http:\/\/www.zillow.com\/local-info\/TX-Richardson\/Arapaho\/r_416915\/"
    },
    {
        "id": 239082,
        "RegionName": "Woodlake",
        "State": "TX",
        "Metro": "Dallas-Fort Worth-Arlington",
        "County": "Denton County",
        "Home Value": 262500,
        "Peak Home Value": 265600,
        "latitude": 33.005525,
        "longitude": -96.880639,
        "name": "Woodlake",
        "url": "http:\/\/www.zillow.com\/local-info\/TX-Carrollton\/Woodlake\/r_239082\/"
    },
    {
        "id": 416925,
        "RegionName": "Richland Park",
        "State": "TX",
        "Metro": "Dallas-Fort Worth-Arlington",
        "County": "Dallas County",
        "Home Value": 333000,
        "Peak Home Value": 335700,
        "latitude": 32.92921,
        "longitude": -96.726264,
        "name": "Richland Park",
        "url": "http:\/\/www.zillow.com\/local-info\/TX-Richardson\/Richland-Park\/r_416925\/"
    },
    {
        "id": 273213,
        "RegionName": "Chandler Heights",
        "State": "TX",
        "Metro": "Dallas-Fort Worth-Arlington",
        "County": "Dallas County",
        "Home Value": 140400,
        "Peak Home Value": 140800,
        "latitude": 32.899856,
        "longitude": -96.640568,
        "name": "Chandler Heights",
        "url": "http:\/\/www.zillow.com\/local-info\/TX-Garland\/Chandler-Heights\/r_273213\/"
    },
    {
        "id": 274773,
        "RegionName": "Northeast Garland",
        "State": "TX",
        "Metro": "Dallas-Fort Worth-Arlington",
        "County": "Dallas County",
        "Home Value": 215200,
        "Peak Home Value": 217500,
        "latitude": 32.941213,
        "longitude": -96.618675,
        "name": "Northeast Garland",
        "url": "http:\/\/www.zillow.com\/local-info\/TX-Garland\/Northeast-Garland\/r_274773\/"
    },
    {
        "id": 761500,
        "RegionName": "Meadow Ridge- Harvest Run",
        "State": "TX",
        "Metro": "Dallas-Fort Worth-Arlington",
        "County": "Denton County",
        "Home Value": 290600,
        "Peak Home Value": 290600,
        "latitude": 33.029359,
        "longitude": -96.873288,
        "name": "Meadow Ridge\/ Harvest Run",
        "url": "http:\/\/www.zillow.com\/local-info\/TX-Carrollton\/Meadow-Ridge_-Harvest-Run\/r_761500\/"
    },
    {
        "id": 416917,
        "RegionName": "Reservation",
        "State": "TX",
        "Metro": "Dallas-Fort Worth-Arlington",
        "County": "Dallas County",
        "Home Value": 394800,
        "Peak Home Value": 394800,
        "latitude": 32.966538,
        "longitude": -96.76216,
        "name": "Reservation",
        "url": "http:\/\/www.zillow.com\/local-info\/TX-Richardson\/Reservation\/r_416917\/"
    },
    {
        "id": 761503,
        "RegionName": "High Country",
        "State": "TX",
        "Metro": "Dallas-Fort Worth-Arlington",
        "County": "Denton County",
        "Home Value": 297300,
        "Peak Home Value": 297300,
        "latitude": 33.017708,
        "longitude": -96.879107,
        "name": "High Country",
        "url": "http:\/\/www.zillow.com\/local-info\/TX-Carrollton\/High-Country\/r_761503\/"
    },
    {
        "id": 416933,
        "RegionName": "Mark Twain",
        "State": "TX",
        "Metro": "Dallas-Fort Worth-Arlington",
        "County": "Dallas County",
        "Home Value": 235600,
        "Peak Home Value": 241600,
        "latitude": 32.952984,
        "longitude": -96.708536,
        "name": "Mark Twain",
        "url": "http:\/\/www.zillow.com\/local-info\/TX-Richardson\/Mark-Twain\/r_416933\/"
    },
    {
        "id": 274861,
        "RegionName": "Oaks",
        "State": "TX",
        "Metro": "Dallas-Fort Worth-Arlington",
        "County": "Dallas County",
        "Home Value": 199100,
        "Peak Home Value": 204300,
        "latitude": 32.839666,
        "longitude": -96.583416,
        "name": "Oaks",
        "url": "http:\/\/www.zillow.com\/local-info\/TX-Garland\/Oaks\/r_274861\/"
    },
    {
        "id": 274042,
        "RegionName": "Holford",
        "State": "TX",
        "Metro": "Dallas-Fort Worth-Arlington",
        "County": "Dallas County",
        "Home Value": 210200,
        "Peak Home Value": 210300,
        "latitude": 32.940682,
        "longitude": -96.661054,
        "name": "Holford",
        "url": "http:\/\/www.zillow.com\/local-info\/TX-Garland\/Holford\/r_274042\/"
    },
    {
        "id": 416923,
        "RegionName": "Heights Park",
        "State": "TX",
        "Metro": "Dallas-Fort Worth-Arlington",
        "County": "Dallas County",
        "Home Value": 304200,
        "Peak Home Value": 306400,
        "latitude": 32.957053,
        "longitude": -96.743015,
        "name": "Heights Park",
        "url": "http:\/\/www.zillow.com\/local-info\/TX-Richardson\/Heights-Park\/r_416923\/"
    },
    {
        "id": 116992,
        "RegionName": "Oak Hills",
        "State": "TX",
        "Metro": "Dallas-Fort Worth-Arlington",
        "County": "Denton County",
        "Home Value": 313000,
        "Peak Home Value": 313000,
        "latitude": 33.021681,
        "longitude": -96.906378,
        "name": "Oak Hills",
        "url": "http:\/\/www.zillow.com\/local-info\/TX-Carrollton\/Oak-Hills\/r_116992\/"
    },
    {
        "id": 275522,
        "RegionName": "Spring Park",
        "State": "TX",
        "Metro": "Dallas-Fort Worth-Arlington",
        "County": "Dallas County",
        "Home Value": 375400,
        "Peak Home Value": 379500,
        "latitude": 32.979537,
        "longitude": -96.673356,
        "name": "Spring Park",
        "url": "http:\/\/www.zillow.com\/local-info\/TX-Garland\/Spring-Park\/r_275522\/"
    },
    {
        "id": 260324,
        "RegionName": "Homestead",
        "State": "TX",
        "Metro": "Dallas-Fort Worth-Arlington",
        "County": "Denton County",
        "Home Value": 390200,
        "Peak Home Value": 390200,
        "latitude": 33.017849,
        "longitude": -96.892614,
        "name": "Homestead",
        "url": "http:\/\/www.zillow.com\/local-info\/TX-Carrollton\/Homestead\/r_260324\/"
    },
    {
        "id": 761504,
        "RegionName": "Rollingwood Estates",
        "State": "TX",
        "Metro": "Dallas-Fort Worth-Arlington",
        "County": "Denton County",
        "Home Value": 235900,
        "Peak Home Value": 237300,
        "latitude": 32.98989,
        "longitude": -96.877321,
        "name": "Rollingwood Estates",
        "url": "http:\/\/www.zillow.com\/local-info\/TX-Carrollton\/Rollingwood-Estates\/r_761504\/"
    },
    {
        "id": 761514,
        "RegionName": "Savoy of Josey Ranch",
        "State": "TX",
        "Metro": "Dallas-Fort Worth-Arlington",
        "County": "Denton County",
        "Home Value": 321800,
        "Peak Home Value": 326900,
        "latitude": 32.971983,
        "longitude": -96.89799,
        "name": "Savoy of Josey Ranch",
        "url": "http:\/\/www.zillow.com\/local-info\/TX-Carrollton\/Savoy-of-Josey-Ranch\/r_761514\/"
    },
    {
        "id": 416948,
        "RegionName": "Creek Hollow Estates",
        "State": "TX",
        "Metro": "Dallas-Fort Worth-Arlington",
        "County": "Dallas County",
        "Home Value": 397700,
        "Peak Home Value": 401000,
        "latitude": 32.990696,
        "longitude": -96.648577,
        "name": "Creek Hollow Estates",
        "url": "http:\/\/www.zillow.com\/local-info\/TX-Richardson\/Creek-Hollow-Estates\/r_416948\/"
    },
    {
        "id": 416325,
        "RegionName": "Wyndsor Estates",
        "State": "TX",
        "Metro": "Dallas-Fort Worth-Arlington",
        "County": "Dallas County",
        "Home Value": 368400,
        "Peak Home Value": 370700,
        "latitude": 32.993972,
        "longitude": -96.617874,
        "name": "Wyndsor Estates",
        "url": "http:\/\/www.zillow.com\/local-info\/TX-Richardson\/Wyndsor-Estates\/r_416325\/"
    },
    {
        "id": 234038,
        "RegionName": "Highlands",
        "State": "TX",
        "Metro": "Dallas-Fort Worth-Arlington",
        "County": "Denton County",
        "Home Value": 341200,
        "Peak Home Value": 341200,
        "latitude": 33.015331,
        "longitude": -96.862806,
        "name": "Highlands",
        "url": "http:\/\/www.zillow.com\/local-info\/TX-Carrollton\/Highlands\/r_234038\/"
    },
    {
        "id": 276453,
        "RegionName": "Mill Creek Crossing",
        "State": "TX",
        "Metro": "Dallas-Fort Worth-Arlington",
        "County": "Dallas County",
        "Home Value": 210000,
        "Peak Home Value": 210000,
        "latitude": 32.901316,
        "longitude": -96.610745,
        "name": "Mill Creek Crossing",
        "url": "http:\/\/www.zillow.com\/local-info\/TX-Garland\/Mill-Creek-Crossing\/r_276453\/"
    },
    {
        "id": 761490,
        "RegionName": "Nob Hill",
        "State": "TX",
        "Metro": "Dallas-Fort Worth-Arlington",
        "County": "Denton County",
        "Home Value": 296000,
        "Peak Home Value": 302000,
        "latitude": 32.990846,
        "longitude": -96.89711,
        "name": "Nob Hill",
        "url": "http:\/\/www.zillow.com\/local-info\/TX-Carrollton\/Nob-Hill\/r_761490\/"
    },
    {
        "id": 273724,
        "RegionName": "Firewheel Estates",
        "State": "TX",
        "Metro": "Dallas-Fort Worth-Arlington",
        "County": "Dallas County",
        "Home Value": 352800,
        "Peak Home Value": 352800,
        "latitude": 32.96523,
        "longitude": -96.628012,
        "name": "Firewheel Estates",
        "url": "http:\/\/www.zillow.com\/local-info\/TX-Garland\/Firewheel-Estates\/r_273724\/"
    },
    {
        "id": 416918,
        "RegionName": "J. J. Pearce",
        "State": "TX",
        "Metro": "Dallas-Fort Worth-Arlington",
        "County": "Dallas County",
        "Home Value": 443800,
        "Peak Home Value": 443800,
        "latitude": 32.974469,
        "longitude": -96.762131,
        "name": "J. J. Pearce",
        "url": "http:\/\/www.zillow.com\/local-info\/TX-Richardson\/J.-J.-Pearce\/r_416918\/"
    }
]